Name,Type,District,Lat_WGS84,Lon_WGS84,Easting_HK1980,Northing_HK1980
Chai Wan Maternal & Child Health Centre,Clinics / Health Centres under the Department of Health,EASTERN,22.26395245,114.2365058,842414.2134999996,813905.2894000001
Tseung Kwan O Families Clinic,Clinics / Health Centres under the Department of Health,SAI KUNG,22.30467382,114.2563796,844460.2325999998,818415.4838999994
Fanling Maternal & Child Health Centre,Clinics / Health Centres under the Department of Health,NORTH,22.49654684,114.1387885,832349.0,839661.0
Tseung Kwan O Government Offices Dental Clinic,Clinics / Health Centres under the Department of Health,SAI KUNG,22.30463427,114.2563453,844456.7045999998,818411.1032999996
Kowloon City Lions Clubs Student Health Service Centre,Clinics / Health Centres under the Department of Health,KOWLOON CITY,22.33019119,114.1890369,837521.0,821239.0
South Kwai Chung Student Health Service Centre,Clinics / Health Centres under the Department of Health,KWAI CHUNG,22.36080613,114.1253981,830966.0,824630.0
Sha Tin Student Health Service Centre,Clinics / Health Centres under the Department of Health,SHA TIN,22.37752063,114.1841083,837013.0,826480.0
West Kowloon Government Offices Student Health Service Centre cum Special Assessment Centre,Clinics / Health Centres under the Department of Health,YAU TSIM MONG,22.31241862,114.1636555,834907.1397000002,819275.1027000006
Shek Kip Mei Chest Clinic (all services suspended),Clinics / Health Centres under the Department of Health,SHAM SHUI PO,22.33101315,114.1672938,835281.0,821330.0
Education and Training Centre in Family Medicine,Clinics / Health Centres under the Department of Health,NGAU TAU KOK,22.31706524,114.2169593,840398.0,819786.0
Fanling Families Clinic,Clinics / Health Centres under the Department of Health,FANLING,22.49621128,114.1388504,832355.3682000004,839623.8720999993
Chai Wan Families Clinic,Clinics / Health Centres under the Department of Health,CHAI WAN,22.26932987,114.2363877,842401.8079000004,814500.7485000007
Hong Kong Families Clinic,Clinics / Health Centres under the Department of Health,WAN CHAI,22.27529393,114.1782017,836404.7969000004,815159.9639999997
Kowloon Families Clinic,Clinics / Health Centres under the Department of Health,HUNG HOM,22.31188455,114.1895984,837579.0236999998,819211.8571000006
New Territories Families Clinic,Clinics / Health Centres under the Department of Health,TSUEN WAN,22.37054633,114.1197608,830385.7714,825708.8268999998
Hong Kong Integrated Care Centre for Civil Service,Clinics / Health Centres under the Department of Health,CENTRAL,22.28450894,114.1526204,833768.5103000002,816180.5791999996
North District Maternal and Child Health Centre,Clinics / Health Centres under the Department of Health,NORTH,22.49837756,114.1276136,831199.1805999996,839864.0963000003
North District Elderly Health Centre,Clinics / Health Centres under the Department of Health,NORTH,22.49833441,114.1275962,831197.3891000003,839859.3190000001
Ap Lei Chau Maternal & Child Health Centre,Clinics / Health Centres under the Department of Health,SOUTHERN,22.24324308,114.153612,833870.0,811611.0
Wu York Yu Maternal & Child Health Centre,Clinics / Health Centres under the Department of Health,WONG TAI SIN,22.34691495,114.1974939,838392.0,823091.0
Sai Ying Pun Maternal & Child Health Centre,Clinics / Health Centres under the Department of Health,CENTRAL AND WESTERN,22.28643525,114.1450365,832987.0,816394.0
North Kwai Chung Maternal & Child Health Centre,Clinics / Health Centres under the Department of Health,KWAI TSING,22.36985878,114.1403183,832503.0,825632.0
Mui Wo Maternal & Child Health Centre,Clinics / Health Centres under the Department of Health,ISLANDS,22.26611127,113.997974,817829.0,814154.0
East Kowloon Maternal & Child Health Centre,Clinics / Health Centres under the Department of Health,WONG TAI SIN,22.33951725,114.2079476,839469.0,822272.0
Robert Black Maternal & Child Health Centre,Clinics / Health Centres under the Department of Health,WONG TAI SIN,22.33249336,114.1956281,838200.0,821494.0
Yaumatei Maternal & Child Health Centre,Clinics / Health Centres under the Department of Health,YAU TSIM MONG,22.30916042,114.1665858,835207.9012000002,818910.1819000002
Tsing Yi Maternal & Child Health Centre,Clinics / Health Centres under the Department of Health,KWAI TSING,22.34891428,114.1059379,828961.0,823314.0
Anne Black Maternal & Child Health Centre,Clinics / Health Centres under the Department of Health,EASTERN,22.29136664,114.2049966,839166.0,816940.0
Cheung Chau Maternal & Child Health Centre,Clinics / Health Centres under the Department of Health,ISLANDS,22.2082217,114.0311186,821239.0,807740.0
Wang Tau Hom Maternal & Child Health Centre,Clinics / Health Centres under the Department of Health,WONG TAI SIN,22.33911364,114.185378,837144.0,822227.0
South Kwai Chung Maternal & Child Health Centre,Clinics / Health Centres under the Department of Health,KWAI TSING,22.36080613,114.1253981,830966.0,824630.0
Kwai Chung Hospital Dental Clinic,Clinics / Health Centres under the Department of Health,KWAI CHUNG,22.3419526,114.1342583,831878.0,822542.0
North District Student Health Service Centre,Clinics / Health Centres under the Department of Health,NORTH,22.49847461,114.1275526,831192.9104000004,839874.8453000002
Yuen Long Student Health Service Centre,Clinics / Health Centres under the Department of Health,YUEN LONG,22.44560048,114.0231681,820446.0,834027.0
Lady Trench Methadone Clinic,Clinics / Health Centres under the Department of Health,TSUEN WAN,22.37055568,114.1155394,829951.0,825710.0
Yuen Long Government Offices Dental Clinic,Clinics / Health Centres under the Department of Health,YUEN LONG,22.44526695,114.0272183,820862.8759000003,833989.6448999997
Tuen Mun Wu Hong Elderly Health Centre,Clinics / Health Centres under the Department of Health,TUEN MUN,22.37715012,113.9671297,814658.2999999998,826464.4000000004
Yuen Chau Kok Chest Clinic,Clinics / Health Centres under the Department of Health,SHA TIN,22.38247667,114.2015095,838805.0,827029.0
Pamela Youde Child Assessment Centre (Shatin),Clinics / Health Centres under the Department of Health,SHA TIN,22.3817632,114.2018784,838843.0,826950.0
Pamela Youde School Dental Clinic,Clinics / Health Centres under the Department of Health,SHA TIN,22.3817632,114.2018784,838847.2999999998,826967.3000000007
Cheung Chau Methadone Clinic,Clinics / Health Centres under the Department of Health,ISLANDS,22.20822141,114.0311186,821239.0,807740.0
Yau Ma Tei Methadone Clinic,Clinics / Health Centres under the Department of Health,YAU TSIM MONG,22.30967269,114.1692804,835485.5404000003,818966.8915999997
Cheung Chau Dental Clinic,Clinics / Health Centres under the Department of Health,CHEUNG CHAU,22.2082217,114.0311186,821243.0999999996,807736.3000000007
Cheung Chau Chest Clinic,Clinics / Health Centres under the Department of Health,ISLANDS,22.2082217,114.0311186,821239.0,807740.0
Ngau Tau Kok Child Assessment Centre,Clinics / Health Centres under the Department of Health,NGAU TAU KOK,22.31705197,114.2169533,840397.3778999997,819784.5629999992
Pamela Youde Child Assessment Centre (Kwun Tong),Clinics / Health Centres under the Department of Health,KWUN TONG,22.30773324,114.2288649,841625.0,818753.0
Fanling Child Assessment Centre,Clinics / Health Centres under the Department of Health,NORTH,22.49654684,114.1387885,832349.0,839661.0
Ha Kwai Chung Child Assessment Centre,Clinics / Health Centres under the Department of Health,KWAI TSING,22.35242659,114.1280127,831235.0,823702.0
Central Kowloon Child Asessment Centre,Clinics / Health Centres under the Department of Health,KOWLOON CITY,22.32543238,114.1839212,836994.0,820712.0
Tuen Mun Child Assessment Centre,Clinics / Health Centres under the Department of Health,TUEN MUN,22.40827229,113.9767563,815663.0,829899.0
Yuen Long Chest Clinic,Clinics / Health Centres under the Department of Health,YUEN LONG,22.44560077,114.0231681,820446.0,834027.0
West Kowloon Government Offices Dental Clinic,Clinics / Health Centres under the Department of Health,TAI KWOK TSUI,22.31241862,114.1636555,834903.5482000001,819271.7654999997
Yuen Long Jockey Club Dental Clinic,Clinics / Health Centres under the Department of Health,YUEN LONG,22.44560077,114.0231681,820440.7999999998,834028.4000000004
Yuen Long Methadone Clinic,Clinics / Health Centres under the Department of Health,YUEN LONG,22.44560077,114.0231681,820446.0,834027.0
Yau Ma Tei Dermatological Clinic,Clinics / Health Centres under the Department of Health,YAU TSIM MONG,22.30961949,114.1692654,835488.3918000003,818973.7468999997
Tang Shiu Kin Dental Clinic,Clinics / Health Centres under the Department of Health,NORTH POINT,22.29137074,114.2048611,839152.0294000003,816940.4837999996
Western Dental Clinic,Clinics / Health Centres under the Department of Health,SAI YING PUN,22.28527785,114.1394863,832415.0,816266.0
Pamela Youde Government Dental Clinic,Clinics / Health Centres under the Department of Health,SHA TIN,22.38193446,114.2020435,838860.0,826969.0
MacLehose Dental Centre 2/F,Clinics / Health Centres under the Department of Health,WAN CHAI,22.27523104,114.1784947,836435.0,815153.0
MacLehose Dental Centre 6/F,Clinics / Health Centres under the Department of Health,WAN CHAI,22.27521298,114.1785141,836437.0,815151.0
Queensway Government Offices Dental Clinic,Clinics / Health Centres under the Department of Health,ADMIRALTY,22.27802102,114.1641633,834958.0,815462.0
Victoria Road Dental Clinic,Clinics / Health Centres under the Department of Health,KENNEDY TOWN,22.28182383,114.1239522,830814.0,815884.0
Sai Ying Pun Dental Clinic 8/F,Clinics / Health Centres under the Department of Health,SAI YING PUN,22.28633036,114.1451292,832996.5421000002,816382.4157999996
Sai Ying Pun Dental Clinic 3/F,Clinics / Health Centres under the Department of Health,SAI YING PUN,22.28633034,114.1451241,832996.0225,816382.4140000008
Tseung Kwan O Dental Clinic,Clinics / Health Centres under the Department of Health,TSEUNG KWAN O,22.31781544,114.2679086,845647.3136,819871.3883999996
Hong Kong Police College Dental Clinic,Clinics / Health Centres under the Department of Health,WONG CHUK HANG,22.24727063,114.1716568,835730.1645999998,812056.8429000005
Harbour Building Dental Clinic,Clinics / Health Centres under the Department of Health,CENTRAL,22.28656915,114.1549796,834011.6750999996,816408.6776
Yau Ma Tei Orthodontic Clinic,Clinics / Health Centres under the Department of Health,YAU MA TEI,22.309567,114.1692131,835478.6127000004,818955.1882000007
Harbour Building Orthodontic Clinic,Clinics / Health Centres under the Department of Health,CENTRAL,22.28658533,114.1550275,834016.6017000005,816410.4691000003
Ma On Shan Dental Clinic,Clinics / Health Centres under the Department of Health,MA ON SHAN,22.42508276,114.2349016,842242.0,831748.0
Ha Kwai Chung Government Dental Clinic,Clinics / Health Centres under the Department of Health,KWAI CHUNG,22.35240466,114.1280481,831238.6476999996,823699.6038000006
Wan Chai Dental Clinic,Clinics / Health Centres under the Department of Health,WAN CHAI,22.27371018,114.17486,836060.3964,814984.5899999999
Madam Yung Fung Shee Dental Clinic,Clinics / Health Centres under the Department of Health,YUEN LONG,22.44102824,114.027085,820848.6873000003,833520.2783000004
Tung Chung Dental Clinic,Clinics / Health Centres under the Department of Health,TUNG CHUNG,22.28856361,113.9431288,812180.0,816648.0
Tsuen Wan Government Offices Dental Clinic,Clinics / Health Centres under the Department of Health,TSUEN WAN,22.37471498,114.1149704,829892.5866,826170.6385999992
Sheung Kwai Chung Prosthodontic Clinic,Clinics / Health Centres under the Department of Health,KWAI CHUNG,22.37619507,114.1367027,832130.8106000004,826333.7794000003
Sheung Kwai Chung Government Dental Clinic,Clinics / Health Centres under the Department of Health,KWAI CHUNG,22.37625696,114.1367069,832131.2426000005,826340.6319999993
Li Po Chun Dental Clinic,Clinics / Health Centres under the Department of Health,TAI KWOK TSUI,22.32274832,114.1660907,835156.9907999998,820414.8366
Yau Ma Tei Dental Clinic,Clinics / Health Centres under the Department of Health,YAU MA TEI,22.3095471,114.1692428,835481.6651999997,818952.9837999996
Kwun Tong Yung Fung Shee Dental Clinic,Clinics / Health Centres under the Department of Health,KWUN TONG,22.3079338,114.2288193,841620.2944999998,818775.2396000009
Cheung Sha Wan Government Offices Dental Clinic,Clinics / Health Centres under the Department of Health,SHAM SHUI PO,22.33167207,114.1602432,834554.6467000004,821403.0611000005
Castle Peak Hospital Dental Clinic,Clinics / Health Centres under the Department of Health,TUEN MUN,22.40952964,113.9714807,815120.0,830039.0
Chai Wan Government Dental Clinic,Clinics / Health Centres under the Department of Health,CHAI WAN,22.26955629,114.2363315,842396.0109000001,814525.8186000008
Aberdeen Jockey Club Dental Clinic,Clinics / Health Centres under the Department of Health,SOUTH,22.24995295,114.1563369,834162.7576000001,812335.7185999993
San Po Kong Elderly Health Centre,Clinics / Health Centres under the Department of Health,WONG TAI SIN,22.33249306,114.195628,838200.0181,821493.3718999997
Wong Siu Ching Maternal & Child Health Centre,Clinics / Health Centres under the Department of Health,TAI PO,22.45016181,114.1680823,835363.0,834524.0
Sai Wan Ho Maternal & Child Health Centre,Clinics / Health Centres under the Department of Health,EASTERN,22.28458931,114.2238202,841106.0,816190.0
Yung Fung Shee Chest Clinic,Clinics / Health Centres under the Department of Health,KWUN TONG,22.30773324,114.2288649,841625.0,818753.0
Wu York Yu Methadone Clinic,Clinics / Health Centres under the Department of Health,WONG TAI SIN,22.34691495,114.1974939,838392.0,823091.0
Kowloon City Maternal & Child Health Centre,Clinics / Health Centres under the Department of Health,KOWLOON CITY,22.31194663,114.189737,837593.2999999998,819218.6999999993
Tsuen Wan Maternal & Child Health Centre,Clinics / Health Centres under the Department of Health,TSUEN WAN,22.36994304,114.119472,830366.2999999998,825589.3000000007
Kwun Tong Methadone Clinic,Clinics / Health Centres under the Department of Health,KWUN TONG,22.31246697,114.226351,841365.7999999998,819277.0999999996
Ho Man Tin Methadone Clinic,Clinics / Health Centres under the Department of Health,KOWLOON CITY,22.31606781,114.1773499,836317.0,819675.0
Kwun Tong Maternal & Child Health Centre,Clinics / Health Centres under the Department of Health,KWUN TONG,22.31491345,114.2260432,841334.0,819548.0
Tung Chung Maternal & Child Health Centre,Clinics / Health Centres under the Department of Health,ISLANDS,22.28885346,113.9435261,812221.0,816680.0
Kwun Tong Dental Clinic,Clinics / Health Centres under the Department of Health,KWUN TONG,22.31488634,114.2261015,841332.0,819546.9000000004
Chai Wan Special Assessment Centre,Clinics / Health Centres under the Department of Health,EASTERN,22.2652965,114.2342631,842183.0,814054.0
Chai Wan Student Health Service Centre,Clinics / Health Centres under the Department of Health,EASTERN,22.2652965,114.2342631,842183.0,814054.0
Tung Chung Elderly Health Centre,Clinics / Health Centres under the Department of Health,ISLANDS,22.28885346,113.9435261,812225.2999999998,816684.4000000004
Kowloon City Dental Clinic,Clinics / Health Centres under the Department of Health,KOWLOON CITY,22.3118771,114.1897244,837591.7000000002,819216.4000000004
Wan Chai Female Social Hygiene Clinic,Clinics / Health Centres under the Department of Health,WAN CHAI,22.27524036,114.1781842,836403.0,815154.0
Ma On Shan Maternal & Child Health Centre,Clinics / Health Centres under the Department of Health,SHA TIN,22.42507401,114.2349405,842246.0,831747.0
Tang Chi Ngong Maternal & Child Health Centre,Clinics / Health Centres under the Department of Health,WAN CHAI,22.27524036,114.1781842,836403.0,815154.0
Wan Chai Female Social Hygiene Clinic (Dermatological Service),Clinics / Health Centres under the Department of Health,WAN CHAI,22.27524036,114.1781842,836403.0,815154.0
Wan Chai Male Social Hygiene Clinic,Clinics / Health Centres under the Department of Health,WAN CHAI,22.27524036,114.1781842,836403.0,815154.0
Wan Chai Male Social Hygiene Clinic (Dermatological Service),Clinics / Health Centres under the Department of Health,WAN CHAI,22.27524036,114.1781842,836403.0,815154.0
Yau Ma Tei Female Social Hygiene Clinic,Clinics / Health Centres under the Department of Health,YAU TSIM MONG,22.30961978,114.1692654,835484.0,818961.0
Yau Ma Tei Male Social Hygiene Clinic,Clinics / Health Centres under the Department of Health,YAU TSIM MONG,22.30961978,114.1692654,835484.0,818961.0
Sai Ying Pun Dermatological Clinic,Clinics / Health Centres under the Department of Health,CENTRAL AND WESTERN,22.28643525,114.1450365,832987.0,816394.0
Chai Wan Social Hygiene Clinic (Male),Clinics / Health Centres under the Department of Health,EASTERN,22.26906114,114.2374179,842508.0,814471.0
Chai Wan Social Hygiene Clinic,Clinics / Health Centres under the Department of Health,EASTERN,22.26906114,114.2374179,842508.0,814471.0
Fanling Integrated Treatment Centre (Social Hygiene Service)(Male),Clinics / Health Centres under the Department of Health,NORTH,22.49654684,114.1387885,832349.0,839661.0
Tuen Mun Social Hygiene Clinic,Clinics / Health Centres under the Department of Health,TUEN MUN,22.39083718,113.9789662,815888.0,827968.0
Fanling Integrated Treatment Centre (Social Hygiene Service)(Female),Clinics / Health Centres under the Department of Health,NORTH,22.49654684,114.1387885,832349.0,839661.0
Yung Fung Shee Social Hygiene Clinic (Male),Clinics / Health Centres under the Department of Health,KWUN TONG,22.30773324,114.2288649,841625.0,818753.0
Yung Fung Shee Social Hygiene Clinic (Female),Clinics / Health Centres under the Department of Health,KWUN TONG,22.30773324,114.2288649,841625.0,818753.0
Yung Fung Shee Dermatological Clinic,Clinics / Health Centres under the Department of Health,KWUN TONG,22.30773324,114.2288649,841625.0,818753.0
Tuen Mun Social Hygiene Clinic (Male),Clinics / Health Centres under the Department of Health,TUEN MUN,22.39083718,113.9789662,815888.0,827968.0
Tuen Mun Social Hygiene Clinic (Female),Clinics / Health Centres under the Department of Health,TUEN MUN,22.39083718,113.9789662,815888.0,827968.0
Fanling Integrated Treatment Centre (Social Hygiene Service),Clinics / Health Centres under the Department of Health,NORTH,22.49654684,114.1387885,832349.0,839661.0
Cheung Sha Wan Dermatological Clinic,Clinics / Health Centres under the Department of Health,SHAM SHUI PO,22.33173503,114.160266,834557.0,821410.0
Chai Wan Social Hygiene Clinic (Female),Clinics / Health Centres under the Department of Health,EASTERN,22.26906114,114.2374179,842508.0,814471.0
Western Special Assessment Centre,Clinics / Health Centres under the Department of Health,CENTRAL AND WESTERN,22.28733976,114.153595,833869.0,816494.0
Radiation Health Unit,Clinics / Health Centres under the Department of Health,SAI WAN HO,22.28458931,114.2238202,841106.0,816190.0
Western Student Health Service Centre,Clinics / Health Centres under the Department of Health,CENTRAL AND WESTERN,22.28733976,114.153595,833869.0,816494.0
Lam Tin School Dental Clinic,Clinics / Health Centres under the Department of Health,LAM TIN,22.31056736,114.2333304,842086.9000000004,819073.5
Tai Po Elderly Health Centre,Clinics / Health Centres under the Department of Health,TAI PO,22.45016181,114.1680823,835368.7999999998,834529.1999999993
Lam Tin Student Health Service Centre,Clinics / Health Centres under the Department of Health,LAM TIN,22.31056736,114.2333304,842085.0,819067.0
Lam Tin Special Assessment Centre,Clinics / Health Centres under the Department of Health,LAM TIN,22.31056736,114.2333304,842085.0,819067.0
Travel Health Centre (Hong Kong),Clinics / Health Centres under the Department of Health,WAN CHAI,22.27441853,114.1727409,835842.0,815063.0
Travel Health Centre (Kowloon),Clinics / Health Centres under the Department of Health,SHAM SHUI PO,22.33173503,114.160266,834557.0,821410.0
Sai Ying Pun Elderly Health Centre,Clinics / Health Centres under the Department of Health,CENTRAL AND WESTERN,22.28643525,114.1450365,833018.0999999996,816382.3000000007
Red Ribbon Centre,Clinics / Health Centres under the Department of Health,WONG TAI SIN,22.33911364,114.185378,837134.2999999998,822228.3000000007
Tuen Mun Student Health Service Centre,Clinics / Health Centres under the Department of Health,TUEN MUN,22.39965593,113.97571,815554.0,828945.0
Sai Kung Mona Fong Dental Clinic,Clinics / Health Centres under the Department of Health,SAI KUNG,22.38165579,114.2721516,846080.0,826945.0
Yan Oi Dental Clinic,Clinics / Health Centres under the Department of Health,TUEN MUN,22.3912257,113.9791404,815917.9000000004,828011.0999999996
Tai O Dental Clinic,Clinics / Health Centres under the Department of Health,TAI O,22.25572832,113.8579363,803417.2999999998,813018.4000000004
Tsz Wan Shan Wu York Yu Student Health Service Centre,Clinics / Health Centres under the Department of Health,WONG TAI SIN,22.34691495,114.1974939,838392.0,823091.0
Tai Po Student Health Service Centre,Clinics / Health Centres under the Department of Health,TAI PO,22.45401767,114.1657698,835125.0,834951.0
Kowloon Bay Student Health Service Centre,Clinics / Health Centres under the Department of Health,KWUN TONG,22.32862653,114.2071007,839382.0,821066.0
Sha Tin (Tai Wai) Methadone Clinic,Clinics / Health Centres under the Department of Health,SHA TIN,22.37752063,114.1841083,837013.0,826480.0
Sai Kung Chest Clinic,Clinics / Health Centres under the Department of Health,SAI KUNG,22.38165579,114.2721516,846080.0,826941.0
Sai Ying Pun X-ray Survey Centre,Clinics / Health Centres under the Department of Health,CENTRAL AND WESTERN,22.28643525,114.1450365,832987.0,816394.0
Sai Ying Pun Chest Clinic,Clinics / Health Centres under the Department of Health,CENTRAL AND WESTERN,22.28643525,114.1450365,832987.0,816394.0
Radio-diagnostic & Imaging Centre (Fanling),Clinics / Health Centres under the Department of Health,NORTH,22.49654684,114.1387885,832349.0,839661.0
Kowloon Bay Integrated Treatment Centre,Clinics / Health Centres under the Department of Health,KWUN TONG,22.32862653,114.2071007,839369.5,821085.1999999993
Lek Yuen Elderly Health Centre,Clinics / Health Centres under the Department of Health,SHA TIN,22.38377826,114.1918187,837806.9000000004,827183.0999999996
Wan Chai Elderly Health Centre,Clinics / Health Centres under the Department of Health,WAN CHAI,22.27738058,114.1726632,835849.0999999996,815388.1999999993
Shau Kei Wan Elderly Health Centre,Clinics / Health Centres under the Department of Health,EASTERN,22.27648746,114.2283391,841572.7999999998,815296.4000000004
Tseung Kwan O Elderly Health Centre,Clinics / Health Centres under the Department of Health,SAI KUNG,22.32526691,114.2596018,844762.2999999998,820682.5
Yau Ma Tei Elderly Health Centre,Clinics / Health Centres under the Department of Health,YAU TSIM MONG,22.30961978,114.1692654,835491.2000000002,818953.9000000004
Sham Shui Po Methadone Clinic,Clinics / Health Centres under the Department of Health,SHAM SHUI PO,22.3266961,114.1616643,834701.0,820852.0
Wanchai Chest Clinic,Clinics / Health Centres under the Department of Health,WAN CHAI,22.27367806,114.1748853,836063.0,814981.0
Shaukiwan Chest Clinic,Clinics / Health Centres under the Department of Health,EASTERN,22.27648746,114.2283391,841572.0,815293.0
East Kowloon Chest Clinic,Clinics / Health Centres under the Department of Health,WONG TAI SIN,22.33976112,114.207705,839444.0,822299.0
Tin Shui Wai Maternal & Child Health Centre,Clinics / Health Centres under the Department of Health,YUEN LONG,22.45454584,114.0014445,818211.0,835020.0
Tsuen Wan Elderly Health Centre,Clinics / Health Centres under the Department of Health,TSUEN WAN,22.37055568,114.1155394,829984.4000000004,825705.5999999996
Kowloon City Elderly Health Centre,Clinics / Health Centres under the Department of Health,KOWLOON CITY,22.33019119,114.1890369,837532.7000000002,821234.9000000004
Aberdeen Elderly Health Centre,Clinics / Health Centres under the Department of Health,SOUTHERN,22.24995324,114.156337,834156.2000000002,812355.9000000004
Yuen Long Elderly Health Centre,Clinics / Health Centres under the Department of Health,YUEN LONG,22.44101701,114.0270978,820845.5999999996,833513.5
Nam Shan Elderly Health Centre,Clinics / Health Centres under the Department of Health,SHAM SHUI PO,22.33412887,114.1706813,835647.9000000004,821700.4000000004
Lam Tin Elderly Health Centre,Clinics / Health Centres under the Department of Health,KWUN TONG,22.30838872,114.2394924,842716.2000000002,818842.5999999996
Kwai Shing Elderly Health Centre,Clinics / Health Centres under the Department of Health,KWAI TSING,22.36541216,114.1268528,831126.5999999996,825145.0
Tang Shiu Kin School Dental Clinic 5/F,Clinics / Health Centres under the Department of Health,WAN CHAI,22.27506878,114.1784559,836432.0999999996,815139.5999999996
Tang Shiu Kin School Dental Clinic 1/F,Clinics / Health Centres under the Department of Health,WAN CHAI,22.27506878,114.1784559,836434.9000000004,815135.4000000004
Tang Shiu Kin School Dental Clinic 2/F,Clinics / Health Centres under the Department of Health,WAN CHAI,22.27506878,114.1784559,836434.9000000004,815135.4000000004
Kowloon Chest Clinic,Clinics / Health Centres under the Department of Health,KOWLOON CITY,22.32193769,114.1783497,836420.0,820325.0
Tai Po Chest Clinic,Clinics / Health Centres under the Department of Health,TAI PO,22.45401767,114.1657698,835125.0,834951.0
Pneumoconiosis Clinic,Clinics / Health Centres under the Department of Health,EASTERN,22.27648746,114.2283391,841572.0,815293.0
Yaumati Chest Clinic,Clinics / Health Centres under the Department of Health,YAU TSIM MONG,22.30961978,114.1692654,835484.0,818961.0
Radio-diagnostic & Imaging Centre (Kowloon Bay),Clinics / Health Centres under the Department of Health,KWUN TONG,22.32862653,114.2071007,839382.0,821066.0
South Kwai Chung Chest Clinic,Clinics / Health Centres under the Department of Health,KWAI TSING,22.36103196,114.1256214,830989.0,824655.0
Tung Chung Chest Clinic,Clinics / Health Centres under the Department of Health,ISLANDS,22.28885346,113.9435261,812221.0,816680.0
Yan Oi Chest Clinic,Clinics / Health Centres under the Department of Health,TUEN MUN,22.3912257,113.9791404,815906.0,828011.0
Sheung Shui Chest Clinic,Clinics / Health Centres under the Department of Health,NORTH,22.50530378,114.1292421,831367.0,840631.0
Lek Yuen Maternal & Child Health Centre,Clinics / Health Centres under the Department of Health,SHA TIN,22.38377826,114.1918187,837807.0,827173.0
Tseung Kwan O Po Ning Road Maternal & Child Health Centre,Clinics / Health Centres under the Department of Health,SAI KUNG,22.31778511,114.2679444,845651.0,819868.0
West Kowloon Maternal & Child Health Centre,Clinics / Health Centres under the Department of Health,SHAM SHUI PO,22.33173503,114.160266,834557.0,821410.0
Lam Tin Maternal & Child Health Centre,Clinics / Health Centres under the Department of Health,KWUN TONG,22.31056736,114.2333304,842085.0,819067.0
Yan Oi Maternal & Child Health Centre,Clinics / Health Centres under the Department of Health,TUEN MUN,22.3912257,113.9791404,815906.0,828011.0
Tuen Mun Wu Hong Maternal & Child Health Centre,Clinics / Health Centres under the Department of Health,TUEN MUN,22.37715012,113.9671297,814667.0,826454.0
Madam Yung Fung Shee Maternal & Child Health Centre,Clinics / Health Centres under the Department of Health,YUEN LONG,22.44101701,114.0270978,820850.0,833519.0
Argyle Street Jockey Club School Dental Clinic 1/F,Clinics / Health Centres under the Department of Health,KOWLOON CITY,22.32498085,114.1838824,836987.5,820660.3000000007
Tuen Mun School Dental Clinic,Clinics / Health Centres under the Department of Health,TUEN MUN,22.39969832,113.9735055,815326.9000000004,828964.5
Kennedy Town Community Complex Dental Clinic,Clinics / Health Centres under the Department of Health,KENNEDY TOWN,22.28181668,114.1290755,831344.0999999996,815871.0999999996
Tai Po Wong Siu Ching Dental Clinic,Clinics / Health Centres under the Department of Health,TAI PO,22.45016181,114.1680823,835357.2999999998,834520.3000000007
Aberdeen Methadone Clinic,Clinics / Health Centres under the Department of Health,SOUTHERN,22.24995324,114.156337,834151.0,812354.0
Tuen Mun Methadone Clinic,Clinics / Health Centres under the Department of Health,TUEN MUN,22.39965593,113.97571,815554.0,828945.0
Violet Peel Methadone Clinic,Clinics / Health Centres under the Department of Health,WAN CHAI,22.27711148,114.1731785,835887.0999999996,815361.1999999993
Shau Kei Wan Methadone Clinic,Clinics / Health Centres under the Department of Health,EASTERN,22.27648746,114.2283391,841572.0,815293.0
Ngau Tau Kok Methadone Clinic,Clinics / Health Centres under the Department of Health,KWUN TONG,22.31706524,114.2169593,840398.0,819786.0
Tai Po Methadone Clinic,Clinics / Health Centres under the Department of Health,TAI PO,22.45401767,114.1657698,835125.0,834951.0
Hung Hom Methadone Clinic,Clinics / Health Centres under the Department of Health,KOWLOON CITY,22.3081387,114.1855993,837167.0,818797.0
Shek Wu Hui Methadone Clinic,Clinics / Health Centres under the Department of Health,NORTH,22.50530378,114.1292421,831367.0,840631.0
Robert Black Methadone Clinic,Clinics / Health Centres under the Department of Health,WONG TAI SIN,22.33249336,114.1956281,838200.0,821494.0
Fanling Health Centre Dental Clinic,Clinics / Health Centres under the Department of Health,FANLING,22.49654684,114.1387885,832348.7000000002,839665.4000000004
Ha Kwai Chung School Dental Clinic,Clinics / Health Centres under the Department of Health,KWAI CHUNG,22.35242659,114.1280127,831239.5999999996,823711.4000000004
Argyle Street Jockey Club School Dental Clinic 3/F,Clinics / Health Centres under the Department of Health,KOWLOON CITY,22.32498085,114.1838824,836992.7000000002,820662.8000000007
Tsuen Wan Dental Clinic,Clinics / Health Centres under the Department of Health,TSUEN WAN,22.37055568,114.1155394,829949.2000000002,825707.5
Fanling School Dental Clinic,Clinics / Health Centres under the Department of Health,FANLING,22.49654684,114.1387885,832349.2000000002,839622.6999999993
